[
  {
    "id": "PHOTO-001",
    "latitude": "48.2082",
    "longitude": "16.3719",
    "image_name": "wall_crack_01.png",
    "category": "wall_crack",
    "status": "detected"
  },
  {
    "id": "PHOTO-002",
    "latitude": "48.2089",
    "longitude": "16.3725",
    "image_name": "missing_sealant_02.png",
    "category": "missing_sealant",
    "status": "detected"
  },
  {
    "id": "PHOTO-003",
    "latitude": "48.2071",
    "longitude": "16.3742",
    "image_name": "uneven_wall_03.png",
    "category": "uneven_finish",
    "status": "detected"
  },
  {
    "id": "PHOTO-004",
    "latitude": "48.2103",
    "longitude": "16.3708",
    "image_name": "smoke_detector_missing_04.png",
    "category": "smoke_detector_missing",
    "status": "flagged"
  },
  {
    "id": "PHOTO-005",
    "latitude": "48.2065",
    "longitude": "16.3760",
    "image_name": "water_stain_05.png",
    "category": "water_damage",
    "status": "detected"
  },
  {
    "id": "PHOTO-006",
    "latitude": "48.2117",
    "longitude": "16.3691",
    "image_name": "loose_tile_06.png",
    "category": "loose_tile",
    "status": "ok"
  }
]
